{
  "positions": [
    {
      "name": "서울중부경찰서",
      "lat": 37.55967764736817,
      "lng": 126.97948956453678,
      "address": "서울 중구 회현동1가 210"
    },
    {
      "name": "서울종로경찰서",
      "lat": 37.57185082446809,
      "lng": 126.98417036713045,
      "address": "서울 종로구 공평동 1"
    },
    {
      "name": "서울남대문경찰서",
      "lat": 37.55477683026614,
      "lng": 126.97349503706043,
      "address": "서울 중구 남대문로5가 561"
    },
    {
      "name": "서울서대문경찰서",
      "lat": 37.5605682018363,
      "lng": 126.962620809226,
      "address": "서울 서대문구 충정로3가 63-1"
    },
    {
      "name": "서울혜화경찰서",
      "lat": 37.57432087104779,
      "lng": 127.01908584271601,
      "address": "서울 종로구 숭인동 165"
    },
    {
      "name": "서울용산경찰서",
      "lat": 37.54117933635974,
      "lng": 126.96777437089538,
      "address": "서울 용산구 원효로1가 12-12"
    },
    {
      "name": "서울성북경찰서",
      "lat": 37.58989767143614,
      "lng": 127.01625465308534,
      "address": "서울 성북구 삼선동5가 301"
    },
    {
      "name": "서울동대문경찰서",
      "lat": 37.5850804205685,
      "lng": 127.045762797538,
      "address": "서울 동대문구 청량리동 229"
    },
    {
      "name": "서울마포경찰서",
      "lat": 37.550824477077796,
      "lng": 126.95400918908302,
      "address": "서울 마포구 아현동 618-1"
    },
    {
      "name": "서울영등포경찰서",
      "lat": 37.52585220719,
      "lng": 126.90094457988,
      "address": "서울 영등포구 당산동3가 2-11"
    },
    {
      "name": "서울성동경찰서",
      "lat": 37.5617947420747,
      "lng": 127.036472076258,
      "address": "서울 성동구 행당동 192-8"
    },
    {
      "name": "서울동작경찰서",
      "lat": 37.5131469479959,
      "lng": 126.942857105642,
      "address": "서울 동작구 노량진동 72-35"
    },
    {
      "name": "서울광진경찰서",
      "lat": 37.54292164557882,
      "lng": 127.08396170505674,
      "address": "서울 광진구 구의동 254-32"
    },
    {
      "name": "서울서부경찰서",
      "lat": 37.60215667958602,
      "lng": 126.92131688777927,
      "address": "서울 은평구 녹번동 177-15"
    },
    {
      "name": "서울강북경찰서",
      "lat": 37.637406561393085,
      "lng": 127.02733870040592,
      "address": "서울 강북구 번동 415-15"
    },
    {
      "name": "서울금천경찰서",
      "lat": 37.45725314643252,
      "lng": 126.89674921449215,
      "address": "서울 금천구 시흥동 1030"
    },
    {
      "name": "서울중랑경찰서",
      "lat": 37.6182390801576,
      "lng": 127.10454224897,
      "address": "서울 중랑구 신내동 810"
    },
    {
      "name": "서울강남경찰서",
      "lat": 37.5093899463715,
      "lng": 127.067070541137,
      "address": "서울 강남구 대치동 998"
    },
    {
      "name": "서울관악경찰서",
      "lat": 37.4745875338795,
      "lng": 126.951062346192,
      "address": "서울 관악구 봉천동 1695-5"
    },
    {
      "name": "서울강서경찰서",
      "lat": 37.5513470867979,
      "lng": 126.849886071842,
      "address": "서울 강서구 화곡동 980-27"
    },
    {
      "name": "서울강동경찰서",
      "lat": 37.52867274661258,
      "lng": 127.12688982770433,
      "address": "서울 강동구 성내동 541-1"
    },
    {
      "name": "서울종암경찰서",
      "lat": 37.60202348733786,
      "lng": 127.0324103972117,
      "address": "서울 성북구 종암동 3-1260"
    },
    {
      "name": "서울구로경찰서",
      "lat": 37.5070387936593,
      "lng": 126.890224925815,
      "address": "서울 구로구 구로동 3-25"
    },
    {
      "name": "서울서초경찰서",
      "lat": 37.49561086789221,
      "lng": 127.00528097622329,
      "address": "서울 서초구 서초동 1726-1"
    },
    {
      "name": "서울양천경찰서",
      "lat": 37.5165549067037,
      "lng": 126.865542970902,
      "address": "서울 양천구 신정동 321"
    },
    {
      "name": "서울송파경찰서",
      "lat": 37.5019757297179,
      "lng": 127.12716129352492,
      "address": "서울 송파구 가락동 9"
    },
    {
      "name": "서울노원경찰서",
      "lat": 37.6423345266253,
      "lng": 127.071404832413,
      "address": "서울 노원구 하계동 250"
    },
    {
      "name": "서울방배경찰서",
      "lat": 37.48155944749938,
      "lng": 126.98300906928465,
      "address": "서울 서초구 방배동 455-10"
    },
    {
      "name": "서울은평경찰서",
      "lat": 37.6285242467996,
      "lng": 126.928631038584,
      "address": "서울 은평구 불광동 산 24"
    },
    {
      "name": "서울도봉경찰서",
      "lat": 37.65339041848567,
      "lng": 127.05270598499145,
      "address": "서울 도봉구 창동 17"
    },
    {
      "name": "서울수서경찰서",
      "lat": 37.4934972653425,
      "lng": 127.077143044327,
      "address": "서울 강남구 개포동 14"
    },
    {
      "name": "부산중부경찰서",
      "lat": 35.10651166334066,
      "lng": 129.03886999419956,
      "address": "부산 중구 중앙동4가 90-9"
    },
    {
      "name": "부산동래경찰서",
      "lat": 35.200477686644774,
      "lng": 129.08476267174603,
      "address": "부산 동래구 수안동 158-1"
    },
    {
      "name": "부산영도경찰서",
      "lat": 35.09385972136556,
      "lng": 129.0366404838481,
      "address": "부산 영도구 대교동1가 20"
    },
    {
      "name": "부산동부경찰서",
      "lat": 35.1299668557547,
      "lng": 129.049101113252,
      "address": "부산 동구 수정동 1-4"
    },
    {
      "name": "부산진경찰서",
      "lat": 35.16023594764156,
      "lng": 129.05437689028966,
      "address": "부산 부산진구 부전동 408-4"
    },
    {
      "name": "부산서부경찰서",
      "lat": 35.10991434010675,
      "lng": 129.01343972121268,
      "address": "부산 서구 서대신동2가 271"
    },
    {
      "name": "부산남부경찰서",
      "lat": 35.1529129848188,
      "lng": 129.089883549391,
      "address": "부산 남구 대연동 243-29"
    },
    {
      "name": "부산해운대경찰서",
      "lat": 35.185876928737,
      "lng": 129.121607157461,
      "address": "부산 해운대구 재송동 1094-1"
    },
    {
      "name": "부산사상경찰서",
      "lat": 35.1542146113447,
      "lng": 128.991453239524,
      "address": "부산 사상구 감전동 136-10"
    },
    {
      "name": "부산금정경찰서",
      "lat": 35.2470422254772,
      "lng": 129.091840191064,
      "address": "부산 금정구 구서동 85-15"
    },
    {
      "name": "부산사하경찰서",
      "lat": 35.0856765635655,
      "lng": 128.978115733796,
      "address": "부산 사하구 신평동 569-1"
    },
    {
      "name": "부산연제경찰서",
      "lat": 35.18288009495206,
      "lng": 129.10459943097482,
      "address": "부산 연제구 연산동 243-11"
    },
    {
      "name": "부산강서경찰서",
      "lat": 35.11647365335461,
      "lng": 128.90626026543637,
      "address": "부산 강서구 명지동 607-5"
    },
    {
      "name": "부산북부경찰서",
      "lat": 35.23009533550177,
      "lng": 129.0093107583591,
      "address": "부산 북구 화명동 2303"
    },
    {
      "name": "부산기장경찰서",
      "lat": 35.25626627583566,
      "lng": 129.224955954171,
      "address": "부산 기장군 일광읍 삼성리 510-14"
    },
    {
      "name": "대구중부경찰서",
      "lat": 35.87098332659588,
      "lng": 128.59207887356703,
      "address": "대구 중구 포정동 40"
    },
    {
      "name": "대구동부경찰서",
      "lat": 35.874338877803574,
      "lng": 128.72055833798825,
      "address": "대구 동구 각산동 224-7"
    },
    {
      "name": "대구서부경찰서",
      "lat": 35.8714672581103,
      "lng": 128.558202583426,
      "address": "대구 서구 평리동 1230-8"
    },
    {
      "name": "대구남부경찰서",
      "lat": 35.8429069274092,
      "lng": 128.58364834235275,
      "address": "대구 남구 대명동 1701-7"
    },
    {
      "name": "대구북부경찰서",
      "lat": 35.8861532617516,
      "lng": 128.582936665492,
      "address": "대구 북구 침산동 447-15"
    },
    {
      "name": "대구수성경찰서",
      "lat": 35.85832331733635,
      "lng": 128.63162150603387,
      "address": "대구 수성구 범어동 238-37"
    },
    {
      "name": "대구달서경찰서",
      "lat": 35.8305150683212,
      "lng": 128.533569585216,
      "address": "대구 달서구 월성동 282"
    },
    {
      "name": "대구성서경찰서",
      "lat": 35.85340436141118,
      "lng": 128.50880787269114,
      "address": "대구 달서구 이곡동 1252-7"
    },
    {
      "name": "대구달성경찰서",
      "lat": 35.688809962855444,
      "lng": 128.45087093255265,
      "address": "대구 달성군 현풍읍 중리 509-3"
    },
    {
      "name": "대구강북경찰서",
      "lat": 35.9433720702619,
      "lng": 128.565340314012,
      "address": "대구 북구 구암동 771-1"
    },
    {
      "name": "인천중부",
      "lat": 37.47285648949548,
      "lng": 126.61823523858104,
      "address": "인천 중구 항동2가 2-7"
    },
    {
      "name": "인천미추홀경찰서",
      "lat": 37.44272695791067,
      "lng": 126.65337402584795,
      "address": "인천 미추홀구 학익동 489-2"
    },
    {
      "name": "인천남동경찰서",
      "lat": 37.44213408922497,
      "lng": 126.70734652169935,
      "address": "인천 남동구 구월동 1447-2"
    },
    {
      "name": "인천논현경찰서",
      "lat": 37.4037489308426,
      "lng": 126.715415538643,
      "address": "인천 남동구 논현동 635-2"
    },
    {
      "name": "인천부평경찰서",
      "lat": 37.5080946811721,
      "lng": 126.719091536418,
      "address": "인천 부평구 청천동 199-37"
    },
    {
      "name": "인천삼산경찰서",
      "lat": 37.5111385916721,
      "lng": 126.732426647371,
      "address": "인천 부평구 삼산동 441-1"
    },
    {
      "name": "인천서부경찰서",
      "lat": 37.54457463457811,
      "lng": 126.6782500515169,
      "address": "인천 서구 심곡동 281-1"
    },
    {
      "name": "인천계양경찰서",
      "lat": 37.53786860038175,
      "lng": 126.73524581700114,
      "address": "인천 계양구 계산동 1078-1"
    },
    {
      "name": "인천연수경찰서",
      "lat": 37.41044300074625,
      "lng": 126.6809854244218,
      "address": "인천 연수구 연수동 635-2"
    },
    {
      "name": "인천강화경찰서",
      "lat": 37.747812325368095,
      "lng": 126.48652195485626,
      "address": "인천 강화군 강화읍 관청리 437"
    },
    {
      "name": "광주동부경찰서",
      "lat": 35.14926884998507,
      "lng": 126.91984380601579,
      "address": "광주 동구 대의동 20"
    },
    {
      "name": "광주서부경찰서",
      "lat": 35.150796914578954,
      "lng": 126.84211002832049,
      "address": "광주 서구 치평동 1161-4"
    },
    {
      "name": "광주남부경찰서",
      "lat": 35.12281431339718,
      "lng": 126.92054991616405,
      "address": "광주 남구 봉선동 26-13"
    },
    {
      "name": "광주북부경찰서",
      "lat": 35.186614576573675,
      "lng": 126.8990233314609,
      "address": "광주 북구 오치동 782-4"
    },
    {
      "name": "광주광산경찰서",
      "lat": 35.1527781224383,
      "lng": 126.782735055452,
      "address": "광주 광산구 운수동 60-6"
    },
    {
      "name": "대전중부경찰서",
      "lat": 36.3266923867495,
      "lng": 127.422596622211,
      "address": "대전 중구 대흥동 496-1"
    },
    {
      "name": "대전동부경찰서",
      "lat": 36.321634255002785,
      "lng": 127.44076370184737,
      "address": "대전 동구 인동 354"
    },
    {
      "name": "대전서부경찰서",
      "lat": 36.3086464714534,
      "lng": 127.372977833197,
      "address": "대전 서구 복수동 292-14"
    },
    {
      "name": "대전대덕경찰서",
      "lat": 36.37180826996474,
      "lng": 127.42930256105926,
      "address": "대전 대덕구 법동 187"
    },
    {
      "name": "대전둔산경찰서",
      "lat": 36.3584443797489,
      "lng": 127.380212156963,
      "address": "대전 서구 둔산동 950"
    },
    {
      "name": "대전유성경찰서",
      "lat": 36.3787818347257,
      "lng": 127.325351335013,
      "address": "대전 유성구 죽동 629"
    },
    {
      "name": "울산중부경찰서",
      "lat": 35.569460044899955,
      "lng": 129.34935113845196,
      "address": "울산 중구 남외동 603-1"
    },
    {
      "name": "울산남부경찰서",
      "lat": 35.5358120041769,
      "lng": 129.310238133198,
      "address": "울산 남구 신정동 689-2"
    },
    {
      "name": "울산동부경찰서",
      "lat": 35.5084983627824,
      "lng": 129.428923600052,
      "address": "울산 동구 전하동 666-1"
    },
    {
      "name": "울산북부경찰서",
      "lat": 35.596999145935,
      "lng": 129.370443977868,
      "address": "울산 북구 화봉동 1505"
    },
    {
      "name": "울산울주경찰서",
      "lat": 35.569542812785,
      "lng": 129.242777153448,
      "address": "울산 울주군 범서읍 구영리 380"
    },
    {
      "name": "세종남부경찰서",
      "lat": 36.4808923888102,
      "lng": 127.29280276933494,
      "address": "세종특별자치시 보람동 715"
    },
    {
      "name": "세종북부경찰서",
      "lat": 36.58821865384085,
      "lng": 127.29489500107606,
      "address": "세종특별자치시 조치원읍 번암리 66-16"
    },
    {
      "name": "수원중부경찰서",
      "lat": 37.29789068092514,
      "lng": 126.99627805098389,
      "address": "경기 수원시 장안구 정자동 873-4"
    },
    {
      "name": "수원남부경찰서",
      "lat": 37.272126535222526,
      "lng": 127.05442565914014,
      "address": "경기 수원시 영통구 매탄동 1196"
    },
    {
      "name": "수원서부경찰서",
      "lat": 37.25873730448849,
      "lng": 126.9722689294309,
      "address": "경기 수원시 권선구 탑동 911"
    },
    {
      "name": "안양동안경찰서",
      "lat": 37.3912713778086,
      "lng": 126.948745110628,
      "address": "경기 안양시 동안구 비산동 1105"
    },
    {
      "name": "안양만안경찰서",
      "lat": 37.3873272490514,
      "lng": 126.925969542902,
      "address": "경기 안양시 만안구 안양동 578-8"
    },
    {
      "name": "과천경찰서",
      "lat": 37.4293195186428,
      "lng": 126.990030361408,
      "address": "경기 과천시 중앙동 39"
    },
    {
      "name": "군포경찰서",
      "lat": 37.3606267596658,
      "lng": 126.936082746646,
      "address": "경기 군포시 금정동 848"
    },
    {
      "name": "성남수정경찰서",
      "lat": 37.4422122654242,
      "lng": 127.126680400815,
      "address": "경기 성남시 수정구 태평동 6812"
    },
    {
      "name": "성남중원경찰서",
      "lat": 37.4426438891041,
      "lng": 127.170386223818,
      "address": "경기 성남시 중원구 상대원동 269-1"
    },
    {
      "name": "분당경찰서",
      "lat": 37.3653219689489,
      "lng": 127.105495315727,
      "address": "경기 성남시 분당구 정자동 160"
    },
    {
      "name": "부천소사 경찰서",
      "lat": 37.468530431764336,
      "lng": 126.82439693080997,
      "address": "경기 부천시 소사구 옥길동 793-4"
    },
    {
      "name": "부천원미 경찰서",
      "lat": 37.5022615118572,
      "lng": 126.777396869118,
      "address": "경기 부천시 원미구 중동 1105"
    },
    {
      "name": "부천오정 경찰서",
      "lat": 37.51454371464128,
      "lng": 126.80043737418961,
      "address": "경기 부천시 오정구 여월동 304"
    },
    {
      "name": "광명경찰서",
      "lat": 37.4740984615079,
      "lng": 126.8678212888,
      "address": "경기 광명시 철산동 418"
    },
    {
      "name": "안산단원경찰서",
      "lat": 37.3217980933768,
      "lng": 126.82921004635573,
      "address": "경기 안산시 단원구 고잔동 514"
    },
    {
      "name": "안산상록경찰서",
      "lat": 37.29933015788696,
      "lng": 126.84510762661728,
      "address": "경기 안산시 상록구 사동 1586-4"
    },
    {
      "name": "시흥경찰서",
      "lat": 37.37678435927908,
      "lng": 126.78807864244328,
      "address": "경기 시흥시 장곡동 340"
    },
    {
      "name": "평택경찰서",
      "lat": 36.9948023024616,
      "lng": 127.091015565505,
      "address": "경기 평택시 비전동 619-2"
    },
    {
      "name": "오산경찰서",
      "lat": 37.15367659795522,
      "lng": 127.08210759305362,
      "address": "경기 오산시 부산동 398-3"
    },
    {
      "name": "화성서부경찰서",
      "lat": 37.19114338687102,
      "lng": 126.82248244881195,
      "address": "경기 화성시 남양읍 신남리 76-1"
    },
    {
      "name": "화성동탄경찰서",
      "lat": 37.1856984619615,
      "lng": 127.09405961417552,
      "address": "경기 화성시 오산동 962-5"
    },
    {
      "name": "용인동부경찰서",
      "lat": 37.241302934611,
      "lng": 127.180503379447,
      "address": "경기 용인시 처인구 삼가동 548"
    },
    {
      "name": "용인서부경찰서",
      "lat": 37.30958357422947,
      "lng": 127.10621603956469,
      "address": "경기 용인시 기흥구 보정동 1290"
    },
    {
      "name": "의왕경찰서",
      "lat": 37.3452984722468,
      "lng": 126.974069929508,
      "address": "경기 의왕시 고천동 231-1"
    },
    {
      "name": "하남경찰서",
      "lat": 37.5231431271313,
      "lng": 127.224515871294,
      "address": "경기 하남시 하산곡동 594"
    },
    {
      "name": "이천경찰서",
      "lat": 37.2735589038029,
      "lng": 127.434808076179,
      "address": "경기 이천시 중리동 350-1"
    },
    {
      "name": "김포경찰서",
      "lat": 37.637442085406,
      "lng": 126.681185475287,
      "address": "경기 김포시 장기동 2083-7"
    },
    {
      "name": "안성경찰서",
      "lat": 37.000451380633265,
      "lng": 127.24842822292784,
      "address": "경기 안성시 도기동 583"
    },
    {
      "name": "여주경찰서",
      "lat": 37.2936225254311,
      "lng": 127.6352521963258,
      "address": "경기 여주시 창동 155"
    },
    {
      "name": "양평경찰서",
      "lat": 37.51702609255047,
      "lng": 127.45483654629597,
      "address": "경기 양평군 옥천면 옥천리 740-9"
    },
    {
      "name": "의정부경찰서",
      "lat": 37.7444428561207,
      "lng": 127.044326754764,
      "address": "경기 의정부시 의정부동 420"
    },
    {
      "name": "양주경찰서",
      "lat": 37.84075520303392,
      "lng": 127.05395011588894,
      "address": "경기 양주시 회정동 84-7"
    },
    {
      "name": "고양경찰서",
      "lat": 37.62867360369027,
      "lng": 126.82983571734577,
      "address": "경기 고양시 덕양구 화정동 1008"
    },
    {
      "name": "일산동부경찰서",
      "lat": 37.665018676734256,
      "lng": 126.76954919159996,
      "address": "경기 고양시 일산동구 정발산동 725"
    },
    {
      "name": "일산서부경찰서",
      "lat": 37.679948011776034,
      "lng": 126.7405481062286,
      "address": "경기 고양시 일산서구 대화동 2325-1"
    },
    {
      "name": "남양주남부경찰서",
      "lat": 37.61185789236818,
      "lng": 127.1711996527588,
      "address": "경기 남양주시 다산동 3020-15"
    },
    {
      "name": "남양주북부경찰서",
      "lat": 37.710433040863364,
      "lng": 127.18275115008066,
      "address": "경기 남양주시 진접읍 연평리 134-23"
    },
    {
      "name": "구리경찰서",
      "lat": 37.5872279321724,
      "lng": 127.129095078686,
      "address": "경기 구리시 교문동 462-3"
    },
    {
      "name": "동두천경찰서",
      "lat": 37.9103748702618,
      "lng": 127.04599766277424,
      "address": "경기 동두천시 상패동 47-6"
    },
    {
      "name": "파주경찰서",
      "lat": 37.7535525767652,
      "lng": 126.778883865822,
      "address": "경기 파주시 금릉동 427"
    },
    {
      "name": "포천경찰서",
      "lat": 37.89376386208109,
      "lng": 127.20457243867166,
      "address": "경기 포천시 군내면 구읍리 729"
    },
    {
      "name": "가평경찰서",
      "lat": 37.8255074640448,
      "lng": 127.515004095739,
      "address": "경기 가평군 가평읍 대곡리 229-1"
    },
    {
      "name": "연천경찰서",
      "lat": 38.0983287062149,
      "lng": 127.07374560206611,
      "address": "경기 연천군 연천읍 차탄리 34-56"
    },
    {
      "name": "춘천경찰서",
      "lat": 37.87035494308817,
      "lng": 127.7235668751929,
      "address": "강원특별자치도 춘천시 효자동 590-1"
    },
    {
      "name": "강릉경찰서",
      "lat": 37.768703513464,
      "lng": 128.906761306582,
      "address": "강원특별자치도 강릉시 포남동 1113"
    },
    {
      "name": "원주경찰서",
      "lat": 37.348260683031796,
      "lng": 127.95825109389072,
      "address": "강원특별자치도 원주시 봉산동 1105"
    },
    {
      "name": "동해경찰서",
      "lat": 37.5250409933887,
      "lng": 129.116488458305,
      "address": "강원특별자치도 동해시 천곡동 816"
    },
    {
      "name": "태백경찰서",
      "lat": 37.10242411781356,
      "lng": 129.00842234253375,
      "address": "강원특별자치도 태백시 장성동 150-50"
    },
    {
      "name": "속초경찰서",
      "lat": 38.1968717724707,
      "lng": 128.568794686428,
      "address": "강원특별자치도 속초시 노학동 3-6"
    },
    {
      "name": "삼척경찰서",
      "lat": 37.446308859078336,
      "lng": 129.1740268600498,
      "address": "강원특별자치도 삼척시 정상동 472"
    },
    {
      "name": "영월경찰서",
      "lat": 37.1845971974906,
      "lng": 128.46737332434,
      "address": "강원특별자치도 영월군 영월읍 영흥리 947-1"
    },
    {
      "name": "정선경찰서",
      "lat": 37.38175905256005,
      "lng": 128.66172915798305,
      "address": "강원특별자치도 정선군 정선읍 봉양리 316"
    },
    {
      "name": "홍천경찰서",
      "lat": 37.70702500890526,
      "lng": 127.9079029129349,
      "address": "강원특별자치도 홍천군 홍천읍 태학리 309"
    },
    {
      "name": "평창경찰서",
      "lat": 37.3695160078676,
      "lng": 128.389334686454,
      "address": "강원특별자치도 평창군 평창읍 하리 230"
    },
    {
      "name": "횡성경찰서",
      "lat": 37.4920192044491,
      "lng": 127.994757596876,
      "address": "강원특별자치도 횡성군 횡성읍 읍상리 606"
    },
    {
      "name": "고성경찰서",
      "lat": 34.9758443727102,
      "lng": 128.332318057766,
      "address": "경남 고성군 고성읍 동외리 157-2"
    },
    {
      "name": "인제경찰서",
      "lat": 38.0706512442036,
      "lng": 128.172782392351,
      "address": "강원특별자치도 인제군 인제읍 상동리 380-1"
    },
    {
      "name": "철원경찰서",
      "lat": 38.1462994777687,
      "lng": 127.311579848262,
      "address": "강원특별자치도 철원군 갈말읍 신철원리 650"
    },
    {
      "name": "화천경찰서",
      "lat": 38.1062266976384,
      "lng": 127.707302734047,
      "address": "강원특별자치도 화천군 화천읍 아리 241"
    },
    {
      "name": "양구경찰서",
      "lat": 38.10556152822787,
      "lng": 127.99104451801814,
      "address": "강원특별자치도 양구군 양구읍 상리 256-1"
    },
    {
      "name": "청주흥덕경찰서",
      "lat": 36.6564991327622,
      "lng": 127.45504149825,
      "address": "충북 청주시 흥덕구 봉명동 2342"
    },
    {
      "name": "청주상당경찰서",
      "lat": 36.609409417331,
      "lng": 127.532528436493,
      "address": "충북 청주시 상당구 운동동 1-4"
    },
    {
      "name": "청주청원경찰서",
      "lat": 36.6512133101322,
      "lng": 127.485577132604,
      "address": "충북 청주시 청원구 우암동 354-10"
    },
    {
      "name": "충주경찰서",
      "lat": 36.9756787398764,
      "lng": 127.935859751143,
      "address": "충북 충주시 교현동 419"
    },
    {
      "name": "제천경찰서",
      "lat": 37.134059702200666,
      "lng": 128.19796282826331,
      "address": "충북 제천시 하소동 194"
    },
    {
      "name": "영동경찰서",
      "lat": 36.1780296507842,
      "lng": 127.775990236282,
      "address": "충북 영동군 영동읍 계산리 473-1"
    },
    {
      "name": "괴산경찰서",
      "lat": 36.8104986078599,
      "lng": 127.791524313924,
      "address": "충북 괴산군 괴산읍 서부리 266"
    },
    {
      "name": "단양경찰서",
      "lat": 36.98552876426955,
      "lng": 128.36502067866135,
      "address": "충북 단양군 단양읍 별곡리 302"
    },
    {
      "name": "보은경찰서",
      "lat": 36.482119972888,
      "lng": 127.714896741114,
      "address": "충북 보은군 보은읍 장신리 1-3"
    },
    {
      "name": "옥천경찰서",
      "lat": 36.298756020258026,
      "lng": 127.5682631040179,
      "address": "충북 옥천군 옥천읍 금구리 149-3"
    },
    {
      "name": "음성경찰서",
      "lat": 36.9268497777335,
      "lng": 127.689730004562,
      "address": "충북 음성군 음성읍 신천리 172"
    },
    {
      "name": "진천경찰서",
      "lat": 36.87121989645961,
      "lng": 127.46558034925249,
      "address": "충북 진천군 진천읍 송두리 141"
    },
    {
      "name": "천안서북경찰서",
      "lat": 36.857709381802,
      "lng": 127.136770256049,
      "address": "충남 천안시 서북구 업성동 174-1"
    },
    {
      "name": "천안동남경찰서",
      "lat": 36.7868332391499,
      "lng": 127.156079627735,
      "address": "충남 천안시 동남구 청당동 481"
    },
    {
      "name": "서산경찰서",
      "lat": 36.7769708761104,
      "lng": 126.447020917083,
      "address": "충남 서산시 읍내동 61-3"
    },
    {
      "name": "논산경찰서",
      "lat": 36.1584457426464,
      "lng": 127.017047667731,
      "address": "충남 논산시 강경읍 남교리 78-2"
    },
    {
      "name": "아산경찰서",
      "lat": 36.7710016865564,
      "lng": 127.022975452024,
      "address": "충남 아산시 풍기동 323-1"
    },
    {
      "name": "공주경찰서",
      "lat": 36.4563282984371,
      "lng": 127.110573906395,
      "address": "충남 공주시 웅진동 242-12"
    },
    {
      "name": "보령경찰서",
      "lat": 36.33350263435304,
      "lng": 126.60975127176903,
      "address": "충남 보령시 명천동 269-19"
    },
    {
      "name": "당진경찰서",
      "lat": 36.8942176755979,
      "lng": 126.640320829005,
      "address": "충남 당진시 읍내동 38-4"
    },
    {
      "name": "홍성경찰서",
      "lat": 36.5883583021719,
      "lng": 126.657881106904,
      "address": "충남 홍성군 홍성읍 옥암리 275-1"
    },
    {
      "name": "예산경찰서",
      "lat": 36.6804544899417,
      "lng": 126.847080193638,
      "address": "충남 예산군 예산읍 예산리 526-2"
    },
    {
      "name": "부여경찰서",
      "lat": 36.2753939660763,
      "lng": 126.902547798181,
      "address": "충남 부여군 부여읍 동남리 588-2"
    },
    {
      "name": "서천경찰서",
      "lat": 36.0094834648936,
      "lng": 126.692021432979,
      "address": "충남 서천군 장항읍 신창리 175-2"
    },
    {
      "name": "금산경찰서",
      "lat": 36.1037014749736,
      "lng": 127.503610085415,
      "address": "충남 금산군 금산읍 신대리 655-10"
    },
    {
      "name": "청양경찰서",
      "lat": 36.46398872809783,
      "lng": 126.794539099608,
      "address": "충남 청양군 청양읍 학당리 202-4"
    },
    {
      "name": "태안경찰서",
      "lat": 36.75738788211617,
      "lng": 126.28888992505564,
      "address": "충남 태안군 태안읍 남문리 407-4"
    },
    {
      "name": "전주완산경찰서",
      "lat": 35.8154374321222,
      "lng": 127.1465476461028,
      "address": "전북특별자치도 전주시 완산구 전동 142-1"
    },
    {
      "name": "전주덕진경찰서",
      "lat": 35.8431196823165,
      "lng": 127.093130611231,
      "address": "전북특별자치도 전주시 덕진구 팔복동3가 360-1"
    },
    {
      "name": "군산경찰서",
      "lat": 35.9812073992618,
      "lng": 126.728221422842,
      "address": "전북특별자치도 군산시 경암동 634-8"
    },
    {
      "name": "익산경찰서",
      "lat": 35.9537312407364,
      "lng": 126.939997560175,
      "address": "전북특별자치도 익산시 모현동2가 289"
    },
    {
      "name": "정읍경찰서",
      "lat": 35.58075354110337,
      "lng": 126.83591967715947,
      "address": "전북특별자치도 정읍시 농소동 1524"
    },
    {
      "name": "남원경찰서",
      "lat": 35.41415543171109,
      "lng": 127.37270811826284,
      "address": "전북특별자치도 남원시 향교동 975"
    },
    {
      "name": "김제경찰서",
      "lat": 35.7980304824861,
      "lng": 126.896877020982,
      "address": "전북특별자치도 김제시 신풍동 141-2"
    },
    {
      "name": "완주경찰서",
      "lat": 35.92739087875292,
      "lng": 127.16730989364216,
      "address": "전북특별자치도 완주군 봉동읍 신성리 29"
    },
    {
      "name": "고창경찰서",
      "lat": 35.4414637421649,
      "lng": 126.695186896425,
      "address": "전북특별자치도 고창군 고창읍 석교리 9-2"
    },
    {
      "name": "부안경찰서",
      "lat": 35.731771647226,
      "lng": 126.721218972694,
      "address": "전북특별자치도 부안군 행안면 역리 222-2"
    },
    {
      "name": "임실경찰서",
      "lat": 35.613774046717324,
      "lng": 127.28809710051607,
      "address": "전북특별자치도 임실군 임실읍 이도리 28-1"
    },
    {
      "name": "순창경찰서",
      "lat": 35.377191533375104,
      "lng": 127.13660688521658,
      "address": "전북특별자치도 순창군 순창읍 순화리 479"
    },
    {
      "name": "진안경찰서",
      "lat": 35.7914077842221,
      "lng": 127.42600067662,
      "address": "전북특별자치도 진안군 진안읍 군상리 954-2"
    },
    {
      "name": "장수경찰서",
      "lat": 35.6469336141173,
      "lng": 127.51652824477135,
      "address": "전북특별자치도 장수군 장수읍 장수리 546"
    },
    {
      "name": "무주경찰서",
      "lat": 36.0039079841939,
      "lng": 127.670156171234,
      "address": "전북특별자치도 무주군 무주읍 당산리 773"
    },
    {
      "name": "목포경찰서",
      "lat": 34.79849774391619,
      "lng": 126.39735763138087,
      "address": "전남 목포시 용당동 1215"
    },
    {
      "name": "여수경찰서",
      "lat": 34.7409496479503,
      "lng": 127.74045733099963,
      "address": "전남 여수시 고소동 343"
    },
    {
      "name": "순천경찰서",
      "lat": 34.97179908486254,
      "lng": 127.48203538843563,
      "address": "전남 순천시 가곡동 425"
    },
    {
      "name": "나주경찰서",
      "lat": 35.038555125066345,
      "lng": 126.72103815534066,
      "address": "전남 나주시 삼도동 854-1"
    },
    {
      "name": "광양경찰서",
      "lat": 34.9634802777589,
      "lng": 127.601822253419,
      "address": "전남 광양시 광양읍 목성리 1035-10"
    },
    {
      "name": "고흥경찰서",
      "lat": 34.61116070944697,
      "lng": 127.2844696607012,
      "address": "전남 고흥군 고흥읍 옥하리 292"
    },
    {
      "name": "해남경찰서",
      "lat": 34.5658513951456,
      "lng": 126.607235484838,
      "address": "전남 해남군 해남읍 해리 281-2"
    },
    {
      "name": "장흥경찰서",
      "lat": 34.678858899081845,
      "lng": 126.89779952385689,
      "address": "전남 장흥군 장흥읍 동동리 281"
    },
    {
      "name": "보성경찰서",
      "lat": 34.7701001272196,
      "lng": 127.081928915871,
      "address": "전남 보성군 보성읍 보성리 738-2"
    },
    {
      "name": "영광경찰서",
      "lat": 35.277765074105446,
      "lng": 126.51245879961897,
      "address": "전남 영광군 영광읍 무령리 203"
    },
    {
      "name": "화순경찰서",
      "lat": 35.0624025687923,
      "lng": 126.984849616202,
      "address": "전남 화순군 화순읍 향청리 146"
    },
    {
      "name": "함평경찰서",
      "lat": 35.06537796118489,
      "lng": 126.5153694413899,
      "address": "전남 함평군 함평읍 함평리 120-1"
    },
    {
      "name": "영암경찰서",
      "lat": 34.79776072725476,
      "lng": 126.69902424654958,
      "address": "전남 영암군 영암읍 서남리 137"
    },
    {
      "name": "장성경찰서",
      "lat": 35.2998052400136,
      "lng": 126.782347185866,
      "address": "전남 장성군 장성읍 영천리 1022-2"
    },
    {
      "name": "강진경찰서",
      "lat": 34.6422828807903,
      "lng": 126.767950168971,
      "address": "전남 강진군 강진읍 남성리 106"
    },
    {
      "name": "담양경찰서",
      "lat": 35.3097739936411,
      "lng": 126.982978311378,
      "address": "전남 담양군 담양읍 백동리 350"
    },
    {
      "name": "곡성경찰서",
      "lat": 35.2838292774753,
      "lng": 127.298997607961,
      "address": "전남 곡성군 곡성읍 읍내리 162-2"
    },
    {
      "name": "완도경찰서",
      "lat": 34.3362842104894,
      "lng": 126.730460791919,
      "address": "전남 완도군 완도읍 죽청리 483-28"
    },
    {
      "name": "무안경찰서",
      "lat": 34.98695802238253,
      "lng": 126.47692898396988,
      "address": "전남 무안군 무안읍 성남리 218-1"
    },
    {
      "name": "진도경찰서",
      "lat": 34.47574135928167,
      "lng": 126.26201319418703,
      "address": "전남 진도군 진도읍 남동리 453-14"
    },
    {
      "name": "구례경찰서",
      "lat": 35.20904568939726,
      "lng": 127.46501190957406,
      "address": "전남 구례군 구례읍 봉동리 315-1"
    },
    {
      "name": "신안경찰서",
      "lat": 34.82521667380114,
      "lng": 126.11338853781017,
      "address": "전남 신안군 암태면 단고리 974-1"
    },
    {
      "name": "경주경찰서",
      "lat": 35.84557371755753,
      "lng": 129.21140441768156,
      "address": "경북 경주시 동부동 150"
    },
    {
      "name": "포항북부경찰서",
      "lat": 36.094026784098496,
      "lng": 129.37811529376106,
      "address": "경북 포항시 북구 양덕동 산 127-1"
    },
    {
      "name": "포항남부경찰서",
      "lat": 36.00736915443093,
      "lng": 129.3471616879393,
      "address": "경북 포항시 남구 상도동 497"
    },
    {
      "name": "구미경찰서",
      "lat": 36.1180103434049,
      "lng": 128.3649401481877,
      "address": "경북 구미시 신평동 188-2"
    },
    {
      "name": "경산경찰서",
      "lat": 35.8225431455635,
      "lng": 128.744854902607,
      "address": "경북 경산시 계양동 503"
    },
    {
      "name": "안동경찰서",
      "lat": 36.55075572794124,
      "lng": 128.71040312116142,
      "address": "경북 안동시 수상동 820-3"
    },
    {
      "name": "김천경찰서",
      "lat": 36.12687452437631,
      "lng": 128.1821684834004,
      "address": "경북 김천시 율곡동 921"
    },
    {
      "name": "영주경찰서",
      "lat": 36.82045665520308,
      "lng": 128.6095246609612,
      "address": "경북 영주시 가흥동 1577"
    },
    {
      "name": "영천경찰서",
      "lat": 35.9528353196861,
      "lng": 128.906560791014,
      "address": "경북 영천시 금호읍 원제리 105-1"
    },
    {
      "name": "상주경찰서",
      "lat": 36.415482510487,
      "lng": 128.163850581783,
      "address": "경북 상주시 성하동 13-2"
    },
    {
      "name": "문경경찰서",
      "lat": 36.58826826183672,
      "lng": 128.18023953911654,
      "address": "경북 문경시 모전동 916"
    },
    {
      "name": "칠곡경찰서",
      "lat": 36.009069784023765,
      "lng": 128.38625113711402,
      "address": "경북 칠곡군 약목면 관호리 733-1"
    },
    {
      "name": "의성경찰서",
      "lat": 36.35541432915679,
      "lng": 128.6870193296754,
      "address": "경북 의성군 의성읍 원당리 13"
    },
    {
      "name": "청도경찰서",
      "lat": 35.6536684655958,
      "lng": 128.750152026478,
      "address": "경북 청도군 청도읍 송읍리 600"
    },
    {
      "name": "영덕경찰서",
      "lat": 36.4006575631219,
      "lng": 129.370032185529,
      "address": "경북 영덕군 영덕읍 남산리 59-3"
    },
    {
      "name": "울진경찰서",
      "lat": 36.9848202550212,
      "lng": 129.397813763279,
      "address": "경북 울진군 울진읍 읍내리 205"
    },
    {
      "name": "봉화경찰서",
      "lat": 36.8890001755856,
      "lng": 128.740113532912,
      "address": "경북 봉화군 봉화읍 내성리 194-1"
    },
    {
      "name": "예천경찰서",
      "lat": 36.657247758579,
      "lng": 128.451646839927,
      "address": "경북 예천군 예천읍 서본리 5-20"
    },
    {
      "name": "성주경찰서",
      "lat": 35.9216513334949,
      "lng": 128.292809775432,
      "address": "경북 성주군 성주읍 성산리 24-1"
    },
    {
      "name": "청송경찰서",
      "lat": 36.4379940773449,
      "lng": 129.052991336774,
      "address": "경북 청송군 청송읍 월막리 444"
    },
    {
      "name": "영양경찰서",
      "lat": 36.661988755899536,
      "lng": 129.12820859179925,
      "address": "경북 영양군 영양읍 동부리 81"
    },
    {
      "name": "군위경찰서",
      "lat": 36.235014651496016,
      "lng": 128.56686713299587,
      "address": "대구 군위군 군위읍 서부리 64"
    },
    {
      "name": "고령경찰서",
      "lat": 35.73472895276484,
      "lng": 128.27184414099972,
      "address": "경북 고령군 대가야읍 쾌빈리 356-5"
    },
    {
      "name": "울릉경찰서",
      "lat": 37.4842513533677,
      "lng": 130.90601928226,
      "address": "경북 울릉군 울릉읍 도동리 206-2"
    },
    {
      "name": "창원중부경찰서",
      "lat": 35.22847052372265,
      "lng": 128.68605165034108,
      "address": "경남 창원시 성산구 신월동 96-1"
    },
    {
      "name": "창원서부경찰서",
      "lat": 35.2521113449571,
      "lng": 128.637090572282,
      "address": "경남 창원시 의창구 도계동 911"
    },
    {
      "name": "마산중부경찰서",
      "lat": 35.19218964489341,
      "lng": 128.5640828541109,
      "address": "경남 창원시 마산합포구 중앙동2가 5-10"
    },
    {
      "name": "마산동부경찰서",
      "lat": 35.23819827521339,
      "lng": 128.5905989848378,
      "address": "경남 창원시 마산회원구 합성동 106"
    },
    {
      "name": "진주경찰서",
      "lat": 35.1933369094862,
      "lng": 128.081564198023,
      "address": "경남 진주시 중안동 10"
    },
    {
      "name": "김해중부경찰서",
      "lat": 35.22668084766118,
      "lng": 128.87912705393632,
      "address": "경남 김해시 봉황동 20-1"
    },
    {
      "name": "김해서부경찰서",
      "lat": 35.1899460384451,
      "lng": 128.797132386349,
      "address": "경남 김해시 대청동 298-2"
    },
    {
      "name": "진해경찰서",
      "lat": 35.1561536343188,
      "lng": 128.704409044524,
      "address": "경남 창원시 진해구 석동 653"
    },
    {
      "name": "통영경찰서",
      "lat": 34.8829675476934,
      "lng": 128.419473543737,
      "address": "경남 통영시 광도면 죽림리 1573"
    },
    {
      "name": "사천경찰서",
      "lat": 34.9332660374877,
      "lng": 128.080831482539,
      "address": "경남 사천시 동금동 59-4"
    },
    {
      "name": "거제경찰서",
      "lat": 34.8986754336507,
      "lng": 128.686618204696,
      "address": "경남 거제시 옥포동 1284-2"
    },
    {
      "name": "밀양경찰서",
      "lat": 35.4691020772256,
      "lng": 128.760882005854,
      "address": "경남 밀양시 상남면 예림리 942-23"
    },
    {
      "name": "양산경찰서",
      "lat": 35.3382052030007,
      "lng": 129.016555038681,
      "address": "경남 양산시 물금읍 범어리 2798-2"
    },
    {
      "name": "거창경찰서",
      "lat": 35.6861329795986,
      "lng": 127.909037177037,
      "address": "경남 거창군 거창읍 상림리 74-4"
    },
    {
      "name": "합천경찰서",
      "lat": 35.563845898506,
      "lng": 128.169694162674,
      "address": "경남 합천군 합천읍 합천리 155-19"
    },
    {
      "name": "창녕경찰서",
      "lat": 35.5406050546664,
      "lng": 128.50073383654,
      "address": "경남 창녕군 창녕읍 교상리 28-7"
    },
    {
      "name": "고성경찰서",
      "lat": 34.9758443727102,
      "lng": 128.332318057766,
      "address": "경남 고성군 고성읍 동외리 157-2"
    },
    {
      "name": "하동경찰서",
      "lat": 35.0678562434609,
      "lng": 127.74855037881,
      "address": "경남 하동군 하동읍 읍내리 272"
    },
    {
      "name": "남해경찰서",
      "lat": 34.8394111843118,
      "lng": 127.89330130183,
      "address": "경남 남해군 남해읍 북변리 179-1"
    },
    {
      "name": "함양경찰서",
      "lat": 35.51954816492964,
      "lng": 127.72519575068817,
      "address": "경남 함양군 함양읍 운림리 46-3"
    },
    {
      "name": "산청경찰서",
      "lat": 35.4164412198802,
      "lng": 127.874522470397,
      "address": "경남 산청군 산청읍 산청리 330"
    },
    {
      "name": "함안경찰서",
      "lat": 35.2788808151765,
      "lng": 128.410500875251,
      "address": "경남 함안군 가야읍 말산리 596"
    },
    {
      "name": "의령경찰서",
      "lat": 35.3211263754254,
      "lng": 128.261541694144,
      "address": "경남 의령군 의령읍 중동리 267-5"
    },
    {
      "name": "제주동부경찰서",
      "lat": 33.503066775181615,
      "lng": 126.53598628366535,
      "address": "제주특별자치도 제주시 이도이동 1234"
    },
    {
      "name": "제주서부경찰서",
      "lat": 33.47403815371263,
      "lng": 126.40568642592491,
      "address": "제주특별자치도 제주시 애월읍 상귀리 415-1"
    },
    {
      "name": "서귀포경찰서",
      "lat": 33.256048378944,
      "lng": 126.508591749346,
      "address": "제주특별자치도 서귀포시 법환동 731-1"
    }
  ]
}